stop_id,stop_name,stop_lat,stop_lon,wheelchair_boarding                                                                                               
04040,Zaragoza Delicias,41.6586576,-0.9112693,1                                                                                                       
05102,San Xoán,43.4945654,-8.2142733,2                                                                                                                
05103,Santa Icía,43.4997707,-8.1999226,2                                                                                                              
05104,Virxe Do Mar,43.4965254,-8.2048752,2                                                                                                            
05105,Piñeiros,43.5094830,-8.1839923,2                                                                                                                
05106,O Ponto,43.5147757,-8.1777808,2                                                                                                                 
05107,Xuvia,43.5171911,-8.1612820,2                                                                                                                   
05108,O Alto Do Castiñeiro,43.5031794,-8.1955484,2                                                                                                    
05109,Ferrerías,43.5280178,-8.1504359,2                                                                                                               
05111,Sedes,43.5426113,-8.1401903,2                                                                                                                   
05113,Pedroso De Narón,43.5367071,-8.1091931,2                                                                                                        
05115,San Sadurniño,43.5460838,-8.0781099,2                                                                                                           
05117,Lamas,43.5473064,-8.0490166,2                                                                                                                   
05119,Apalla,43.5504570,-8.0186188,2                                                                                                                  
05121,Moeche,43.5621320,-8.0027572,2                                                                                                                  
05123,Labacengos,43.5652707,-7.9801882,2                                                                                                              
05125,Entrambarrías,43.5770633,-7.9542644,2                                                                                                           
05127,Cerdido,43.5873426,-7.9343099,2                                                                                                                 
05129,A Cuqueira,43.6078292,-7.9219389,2                                                                                                              
05131,Santa María De Mera,43.6409288,-7.9161904,2                                                                                                     
05133,Ponte Mera,43.6660380,-7.9026205,2                                                                                                              
05135,San Clodio,43.6609443,-7.8734780,2                                                                                                              
05137,Senra,43.6687930,-7.8545534,2                                                                                                                   
05139,Ortigueira,43.6862217,-7.8495738,2                                                                                                              
05141,Espasante,43.70888,-7.804897,2                                                                                                                  
05143,Loiba,43.7303930,-7.7500440,2                                                                                                                   
05145,O Barqueiro,43.735649,-7.70288,2                                                                                                                
05147,O Vicedo,43.7310260,-7.6732150,2                                                                                                                
05149,Mosende,43.706194,-7.635477,2                                                                                                                   
05151,Folgueiro,43.692766,-7.635048,2                                                                                                                 
05153,Covas De Viveiro,43.670275,-7.614613,2                                                                                                          
05155,Viveiro,43.6569,-7.60033,2                                                                                                                      
05156,Viveiro Apeadero,43.6614350,-7.5945320,2                                                                                                        
05157,Xuances,43.687991,-7.553904,2                                                                                                                   
05159,Xove Pobo,43.683567,-7.510921,2                                                                                                                 
05161,Xove,43.681138,-7.495251,2                                                                                                                      
05163,Lago,43.687108,-7.481942,2                                                                                                                      
05165,Bidueiros,43.696712,-7.468843,2                                                                                                                 
05167,San Cibrao,43.692319,-7.44177,2                                                                                                                 
05169,Madeiro,43.686219,-7.412863,2                                                                                                                   
05171,Burela,43.660607,-7.361183,2                                                                                                                    
05173,Cangas De Foz,43.626106,-7.333309,2                                                                                                             
05175,Nois,43.610309,-7.312222,2                                                                                                                      
05177,Fazouro,43.600457,-7.299843,2                                                                                                                   
05179,Marzán,43.57475,-7.26936,2                                                                                                                      
05181,Foz,43.560886,-7.272235,2                                                                                                                       
05183,Barreiros,43.5473660,-7.2252870,2                                                                                                               
05185,Reinante,43.5498700,-7.1743150,2                                                                                                                
05187,Esteiro,43.551697,-7.146099,2                                                                                                                   
05189,Os Castros,43.55157,-7.130895,2                                                                                                                 
05191,Rinlo,43.549761,-7.108645,2                                                                                                                     
05193,Ribadeo,43.53607,-7.055572,2                                                                                                                    
05197,Vegadeo Pueblo,43.479667,-7.057327,2                                                                                                            
05199,Vilavedelle,43.4905020,-7.0383530,2                                                                                                             
05203,Tremañes Carreño,43.5285524,-5.6948835,2                                                                                                        
05204,Centro De Transportes,43.5311295,-5.7067165,2                                                                                                   
05207,Aboño Apeadero,43.5550490,-5.7236039,2                                                                                                          
05208,Xivares,43.5659387,-5.7287459,2                                                                                                                 
05209,Perlora,43.5808632,-5.7541047,2                                                                                                                 
05210,Candás-Apeadero,43.5865380,-5.7679715,2                                                                                                         
05211,Candás,43.5847107,-5.7726902,2                                                                                                                  
05213,Regueral,43.5805017,-5.7976160,2                                                                                                                
05215,Zanzabornín,43.5689267,-5.8253120,2                                                                                                             
05216,Gudín Laminación,43.5522931,-5.8653924,2                                                                                                        
05217,Trasona,43.5517694,-5.8741747,2                                                                                                                 
05219,Llaranes,43.5543366,-5.8965567,2                                                                                                                
05220,Cristalería,43.5755676,-5.9292414,2                                                                                                             
05221,Avilés-Apeadero,43.5546343,-5.9174416,2                                                                                                         
05224,Raíces,43.5763492,-5.9399127,2                                                                                                                  
05225,Salinas,43.5703913,-5.9566256,2                                                                                                                 
05227,Piedras Blancas,43.5565567,-5.9755523,2                                                                                                         
05229,Vegarrozadas,43.5511613,-5.9955140,2                                                                                                            
05231,Santiago Del Monte,43.5409241,-6.0279710,2                                                                                                      
05232,El Parador,43.5351412,-6.0705907,2                                                                                                              
05233,Soto Del Barco,43.5290556,-6.0712934,2                                                                                                          
05235,Riberas,43.5027396,-6.0743054,2                                                                                                                 
05237,Peñaullán,43.4911696,-6.0939642,2                                                                                                               
05239,Santianes,43.5037990,-6.0918391,2                                                                                                               
05241,Los Cabos,43.5124147,-6.0974746,2                                                                                                               
05243,Muros Del Nalón,43.5429728,-6.1110718,2                                                                                                         
05244,El Pito Piñera,43.5469091,-6.1433417,2                                                                                                          
05245,Cudillero,43.5509259,-6.1519305,2                                                                                                               
05247,Villademar,43.557065,-6.155477,2                                                                                                                
05249,La Magdalena,43.559309,-6.184922,2                                                                                                              
05251,San Martín De Luiña,43.5447530,-6.2287020,2                                                                                                     
05253,San Cosme,43.544069,-6.248091,2                                                                                                                 
05255,Soto De Luiña,43.559635,-6.234369,2                                                                                                             
05257,Valdredo,43.56638,-6.263234,2                                                                                                                   
05259,Novellana,43.557795,-6.289593,2                                                                                                                 
05261,Santa Marina,43.552674,-6.305181,2                                                                                                              
05263,Ballota,43.5507160,-6.3228120,2                                                                                                                 
05265,Tablizo,43.5472530,-6.3512250,2                                                                                                                 
05267,Cadavedo,43.542952,-6.391612,2                                                                                                                  
05269,San Cristóbal,43.547225,-6.415264,2                                                                                                             
05271,Canero,43.541913,-6.445878,2                                                                                                                    
05273,Barcia,43.546813,-6.50828,2                                                                                                                     
05275,Luarca,43.537949,-6.536617,2                                                                                                                    
05277,Otur,43.540541,-6.593562,2                                                                                                                      
05279,Villapedre,43.546723,-6.64587,2                                                                                                                 
05281,Piñera-Villaoril,43.535685,-6.685414,2                                                                                                          
05283,Navia,43.536802,-6.719425,2                                                                                                                     
05285,Medal,43.545692,-6.752994,2                                                                                                                     
05287,Loza,43.551254,-6.771675,2                                                                                                                      
05289,Cartavio,43.550714,-6.789622,2                                                                                                                  
05291,La Caridad,43.547074,-6.827541,2                                                                                                                
05293,Tapia,43.535026,-6.909329,2                                                                                                                     
05295,Tol,43.527204,-6.952128,2                                                                                                                       
05297,Las Campas De Castropol,43.5202979,-6.9771022,2                                                                                                 
05299,Castropol,43.5095861,-7.0147697,2                                                                                                               
05300,Vallobín,43.3652306,-5.8647984,2                                                                                                                
05301,Argañosa-Lavapiés,43.3658311,-5.8700180,2                                                                                                       
05302,Las Campas,43.3638889,-5.8833728,2                                                                                                              
05303,Las Mazas,43.3587192,-5.8975568,2                                                                                                               
05304,San Claudio,43.3553535,-5.9178091,2                                                                                                             
05306,San Pedro De Nora,43.3687481,-5.9585951,2                                                                                                       
05308,Soto Udrión,43.3564364,-5.9650157,2                                                                                                             
05311,Trubia,43.3485700,-5.9677756,2                                                                                                                  
05313,Santa María De Grado,43.3842274,-5.9827075,2                                                                                                    
05315,Vega De Anzo,43.3893300,-6.0056834,2                                                                                                            
05316,Peñaflor De Grado,43.4029267,-6.0453921,2                                                                                                       
05317,Grado,43.3945424,-6.0637254,2                                                                                                                   
05319,Sandiche,43.4256226,-6.0599341,2                                                                                                                
05320,Aces,43.4399142,-6.0657983,2                                                                                                                    
05321,San Román,43.4488839,-6.0771641,2                                                                                                               
05323,Beifar,43.4701379,-6.0988707,2                                                                                                                  
05325,Pravia,43.4908983,-6.1105373,2                                                                                                                  
05327,San Ranón,43.5164547,-6.0820305,2                                                                                                               
05329,San Esteban,43.5520940,-6.0872393,2                                                                                                             
05361,Baiña,43.2744717,-5.8282902,2                                                                                                                   
05369,Mieres Vasco,43.2502968,-5.7801106,2                                                                                                            
05371,Caudalia,43.2282154,-5.7827740,2                                                                                                                
05373,Figaredo,43.2138398,-5.7840362,2                                                                                                                
05375,Ujo Taruelo,43.2006229,-5.7878612,2                                                                                                             
05376,Santa Cruz,43.1959703,-5.7775447,2                                                                                                              
05377,Caborana,43.1761169,-5.7548626,2                                                                                                                
05379,Moreda De Aller,43.1707918,-5.7419622,2                                                                                                         
05380,San Antonio,43.1688510,-5.6967075,2                                                                                                             
05381,Oyanco,43.1665527,-5.7221512,2                                                                                                                  
05382,Corigos,43.1642867,-5.6766513,2                                                                                                                 
05383,Piñeres,43.1659730,-5.6842539,2                                                                                                                 
05384,Santa Ana-Soto,43.1647805,-5.6460998,2                                                                                                          
05385,Cabañaquinta,43.1607700,-5.6248987,2                                                                                                            
05387,Levinco,43.1511077,-5.6002937,2                                                                                                                 
05389,Collanzo,43.1241004,-5.5661544,2                                                                                                                
05403,Tremañes-Langreo,43.5285439,-5.6948684,2                                                                                                        
05405,Sotiello,43.5072386,-5.7265416,2                                                                                                                
05407,Pinzales,43.4865408,-5.7197038,2                                                                                                                
05409,Aguda,43.4655199,-5.7260209,2                                                                                                                   
05410,Xixún,43.3714523,-5.6938682,2                                                                                                                   
05411,La Florida,43.4347588,-5.7099268,2                                                                                                              
05412,Puente Buracos,43.4480478,-5.7172664,2                                                                                                          
05413,Noreña,43.3939778,-5.7036269,2                                                                                                                  
05415,Bendición,43.3634748,-5.6805850,2                                                                                                               
05416,Valdesoto,43.3583496,-5.6581467,2                                                                                                               
05417,Carbayín,43.3507215,-5.6343348,2                                                                                                                
05420,Curuxona,43.3398152,-5.6304762,2                                                                                                                
05421,Tuilla,43.3281506,-5.6430775,2                                                                                                                  
05426,La Felguera N. Langreo-N. Llangréu,43.305459,-5.688896,2                                                                                        
05427,Sama Los Llerones,43.296706,-5.680359,2                                                                                                         
05431,Ciaño Escobio,43.2907242,-5.6678998,2                                                                                                           
05432,San Vicente,43.2891417,-5.6529333,2                                                                                                             
05433,El Entrego La Oscura,43.2895101,-5.6408099,2                                                                                                    
05435,Carrocera,43.2877335,-5.6263765,2                                                                                                               
05436,San Martín,43.2783764,-5.6152919,2                                                                                                              
05437,Sotrondio,43.2759255,-5.6048900,2                                                                                                               
05439,Blimea,43.2708812,-5.5903311,2                                                                                                                  
05441,Barredos,43.2598889,-5.5749934,2                                                                                                                
05443,Laviana,43.2508161,-5.5646688,2                                                                                                                 
05451,Bilbao La Concordia,43.2601901,-2.9263839,2                                                                                                     
05455,Basurto Hospital,43.2597699,-2.9538267,2                                                                                                        
05457,Zorrotza Zorrozgoiti,43.2740398,-2.9740116,2                                                                                                    
05459,Santa águeda,43.2618570,-2.9730218,2                                                                                                            
05460,Kastrexana,43.2554758,-2.9721445,2                                                                                                              
05461,Irauregui,43.2484180,-2.9900734,2                                                                                                               
05463,Zaramillo,43.2332894,-3.0159040,2                                                                                                               
05465,La Quadra,43.2227230,-3.0249848,2                                                                                                               
05467,Sodupe,43.2020301,-3.0505170,2                                                                                                                  
05469,Artxube,43.2009930,-3.0715031,2                                                                                                                 
05470,Lambarri,43.2060733,-3.0825107,2                                                                                                                
05471,Güeñes,43.2090276,-3.0952113,2                                                                                                                  
05473,Aranguren,43.2104561,-3.1083990,2                                                                                                               
05474,Aranguren-Apeadero,43.2103517,-3.1140505,2                                                                                                      
05475,Zalla,43.2129096,-3.1333368,2                                                                                                                   
05477,Colegio,43.2112674,-3.1381409,2                                                                                                                 
05479,Ibarra,43.2039590,-3.1448388,2                                                                                                                  
05481,La Herrera,43.2034521,-3.1705687,2                                                                                                              
05483,Balmaseda,43.1963551,-3.1899562,2                                                                                                               
05484,Mimetiz,43.2132627,-3.1352774,1                                                                                                                 
05485,La Calzada,43.1901154,-3.1974062,2                                                                                                              
05487,Traslaviña,43.23329,-3.198304,2                                                                                                                 
05489,Artzentales,43.2500000,-3.2200000,2                                                                                                             
05493,Villaverde De Trucios,43.2412800,-3.2505400,2                                                                                                   
05497,Karrantza,43.238854,-3.357827,2                                                                                                                 
05504,Parque Principado,43.3865865,-5.8087971,2                                                                                                       
05505,Colloto,43.3795086,-5.7923660,2                                                                                                                 
05507,Meres,43.3809885,-5.7487209,2                                                                                                                   
05508,Fonciello,43.3817779,-5.7297194,2                                                                                                               
05509,El Berrón,43.3827383,-5.7026774,2                                                                                                               
05511,La Carrera De Siero,43.3869214,-5.6753462,2                                                                                                     
05513,Pola De Siero,43.3881527,-5.6647718,2                                                                                                           
05515,Los Corros,43.3768432,-5.6013769,2                                                                                                              
05517,Lieres,43.3805830,-5.5826229,2                                                                                                                  
05521,El Remedio,43.3750793,-5.5462394,2                                                                                                              
05522,Llames,43.3687796,-5.5252404,2                                                                                                                  
05523,Nava,43.3611878,-5.5090986,2                                                                                                                    
05525,Fuente Santa De Nava,43.3555699,-5.4783790,2                                                                                                    
05527,Ceceda,43.3562226,-5.4511094,2                                                                                                                  
05529,Carancos,43.3555692,-5.4344422,2                                                                                                                
05531,Pintueles,43.3599234,-5.3841316,2                                                                                                               
05533,Infiesto,43.3517868,-5.3692019,2                                                                                                                
05534,Infiesto Apeadero,43.3440407,-5.3606414,2                                                                                                       
05535,Villamayor,43.3631000,-5.3028500,2                                                                                                              
05537,Sebares,43.3623600,-5.2574000,2                                                                                                                 
05539,Soto De Dueñas,43.3583000,-5.2268900,2                                                                                                          
05541,Ozanes,43.368395,-5.185191,2                                                                                                                    
05542,Policlínico,43.3786220,-5.1860300,2                                                                                                             
05543,Arriondas,43.387513,-5.188258,2                                                                                                                 
05545,Fuentes,43.401443,-5.143117,2                                                                                                                   
05547,Toraño,43.412281,-5.118013,2                                                                                                                    
05549,Cuevas,43.4311440,-5.0733020,2                                                                                                                  
05551,Llovio,43.4405630,-5.0555920,2                                                                                                                  
05553,Ribadesella,43.4594500,-5.0545000,2                                                                                                             
05555,Camango,43.4482100,-5.0188200,2                                                                                                                 
05557,Belmonte De Pría,43.4398000,-4.9822800,2                                                                                                        
05559,Nueva,43.440585,-4.935531,2                                                                                                                     
05561,Villahormes,43.4420099,-4.9038300,2                                                                                                             
05563,Posada,43.4248300,-4.8650000,2                                                                                                                  
05565,Balmori,43.4214700,-4.8358300,2                                                                                                                 
05567,Celorio,43.4250100,-4.8113300,2                                                                                                                 
05569,Poo,43.4242900,-4.7818900,2                                                                                                                     
05571,Llanes,43.4209400,-4.7587000,2                                                                                                                  
05573,San Roque Del Acebal,43.3947300,-4.7301300,2                                                                                                    
05575,Vidiago,43.3964700,-4.6730000,2                                                                                                                 
05577,Pendueles,43.3928300,-4.6303900,2                                                                                                               
05579,Colombres,43.3827200,-4.5570900,2                                                                                                               
05602,Valdecilla La Marga,43.4529465,-3.8282409,2                                                                                                     
05603,Cazoña,43.4551542,-3.8411637,2                                                                                                                  
05604,Adarzo,43.4534716,-3.8559044,2                                                                                                                  
05605,Bezana,43.4408549,-3.8995921,2                                                                                                                  
05607,Mortera,43.4352343,-3.9182532,2                                                                                                                 
05609,Boo De Piélagos,43.4316558,-3.9463107,2                                                                                                         
05611,Mogro,43.4248932,-3.9605163,2                                                                                                                   
05613,Gornazo,43.4097025,-3.9886035,2                                                                                                                 
05615,Mar,43.3984063,-4.0100059,2                                                                                                                     
05617,Requejada,43.3914179,-4.0280246,2                                                                                                               
05619,Barreda,43.3742833,-4.0418972,2                                                                                                                 
05620,Altamira,43.3519196,-4.0569699,2                                                                                                                
05621,Torrelavega-Centro,43.3510014,-4.0511789,2                                                                                                      
05622,Ganzo,43.3565281,-4.0702273,2                                                                                                                   
05623,Puente San Miguel,43.3586724,-4.0877667,2                                                                                                       
05625,Santa Isabel De Quijas,43.3590101,-4.1118533,2                                                                                                  
05627,San Pedro De Rudagüera,43.3611587,-4.1495281,2                                                                                                  
05629,Golbardo,43.3408164,-4.1556282,2                                                                                                                
05631,Casar De Periedo,43.3387837,-4.1747310,2                                                                                                        
05633,Virgen De La Peña,43.3230394,-4.1934840,2                                                                                                       
05635,Ontoria,43.3153337,-4.2154219,2                                                                                                                 
05637,Cabezón De La Sal,43.3079038,-4.2319437,2                                                                                                       
05641,Treceño,43.3182800,-4.3090200,2                                                                                                                 
05643,Roiz,43.3282100,-4.3492700,2                                                                                                                    
05644,El Barcenal,43.340347,-4.383335,2                                                                                                               
05645,San Vicente De La Barquera,43.367837,-4.404504,2                                                                                                
05647,Pesués,43.370289,-4.480174,2                                                                                                                    
05649,Unquera,43.3747800,-4.5143400,2                                                                                                                 
05651,Nueva Montaña,43.4401845,-3.8493711,2                                                                                                           
05652,Valle Real,43.4275399,-3.8405377,2                                                                                                              
05655,Maliaño Vidriera,43.4160163,-3.8411016,2                                                                                                        
05657,Astillero,43.4036508,-3.8206798,2                                                                                                               
05658,La Cantábrica,43.3973661,-3.8149679,2                                                                                                           
05659,San Salvador,43.3937660,-3.8038540,2                                                                                                            
05661,Heras,43.4008996,-3.7666376,2                                                                                                                   
05663,Orejo,43.3994776,-3.7383974,2                                                                                                                   
05665,Solares,43.3872470,-3.7313834,2                                                                                                                 
05667,Ceceñas,43.3764924,-3.7181918,2                                                                                                                 
05669,La Cavada,43.3506141,-3.7070777,2                                                                                                               
05671,Liérganes,43.3450748,-3.7426450,2                                                                                                               
05672,Puente Agüero,43.406489,-3.719342,2                                                                                                             
05673,Villaverde De Pontones,43.411322,-3.703643,2                                                                                                    
05675,Hoz De Anero,43.404885,-3.666883,2                                                                                                              
05677,Beranga,43.4137100,-3.5771300,2                                                                                                                 
05679,Gama,43.4231500,-3.5247200,2                                                                                                                    
05681,Cicero,43.4170520,-3.4904900,2                                                                                                                  
05683,Treto,43.3940900,-3.4692000,2                                                                                                                   
05685,Limpias,43.3588100,-3.4333400,2                                                                                                                 
05687,Marrón,43.34661,-3.420918,2                                                                                                                     
05689,Udalla,43.3136800,-3.4454900,2                                                                                                                  
05691,Gibaja,43.2821900,-3.4383100,2                                                                                                                  
05721,Arla Berrón,43.1666990,-3.2275890,2                                                                                                             
05722,Ungo Nava,43.1428940,-3.2647160,2                                                                                                               
05724,Mercadillo Villasana,43.1052090,-3.2644690,2                                                                                                    
05727,Cadagua,43.0681710,-3.3473390,2                                                                                                                 
05730,Bercedo-Montija,43.0884790,-3.4560000,2                                                                                                         
05731,Quintana De Los Prados,43.0800000,-3.5100000,2                                                                                                  
05732,Espinosa De Los Monteros,43.0742520,-3.5371160,2                                                                                                
05733,Redondo,43.0629930,-3.6078950,2                                                                                                                 
05734,Sotoscueva,43.0452920,-3.6882530,2                                                                                                              
05735,Pedrosa,43.0123670,-3.7378520,2                                                                                                                 
05736,Dosante Cidad,43.0012500,-3.7452500,2                                                                                                           
05737,Robredo Ahedo,43.0190940,-3.8092310,2                                                                                                           
05738,Soncillo,43.005809,-3.844888,2                                                                                                                  
05739,Cabañas De Virtus,42.996397,-3.858466,2                                                                                                         
05740,Arija,42.9912920,-3.9450060,2                                                                                                                   
05741,Llano,42.9880620,-3.9823570,2                                                                                                                   
05742,Las Rozas De Valdearroyo,42.9736050,-4.0298640,2                                                                                                
05743,Montes Claros,42.9343230,-4.0500730,2                                                                                                           
05744,Los Carabeos,42.9103290,-4.0752110,2                                                                                                            
05747,Cillamayor,42.8577520,-4.2791780,2                                                                                                              
05748,Salinas De Pisuerga,42.8512710,-4.3862090,2                                                                                                     
05749,Vado-Cervera,42.8393600,-4.4947700,2                                                                                                            
05750,Castrejón De La Peña,42.8119900,-4.6016200,2                                                                                                    
05751,Villaverde Tarilonte,42.8183530,-4.6854190,2                                                                                                    
05752,Santibáñez De La Peña,42.8020400,-4.7414500,2                                                                                                   
05753,Guardo Apeadero,42.7877378,-4.8451330,2                                                                                                         
05754,Guardo,42.7909950,-4.8519325,2                                                                                                                  
05755,La Llama De La Guzpeña,42.7702481,-5.0412478,2                                                                                                  
05756,La Espina,42.7868560,-4.9052025,2                                                                                                               
05757,Valcuende,42.7655780,-4.9292558,2                                                                                                               
05758,Puente Almuhey,42.7876320,-4.9718992,2                                                                                                          
05759,Prado De La Guzpeña,42.7832347,-5.0270973,2                                                                                                     
05760,Valle De Las Casas,42.7677720,-5.0713669,2                                                                                                      
05761,Cistierna,42.8031600,-5.1307925,2                                                                                                               
05763,La Ercina,42.8088480,-5.2138924,2                                                                                                               
05766,Boñar,42.8627875,-5.3285261,2                                                                                                                   
05767,La Vecilla,42.8551158,-5.4121157,2                                                                                                              
05770,Matallana,42.8411490,-5.5218718,2                                                                                                               
05776,San Feliz,42.6823112,-5.5379086,2                                                                                                               
05790,Sorriba,42.7862770,-5.1274758,2                                                                                                                 
05799,Cerezal De La Guzpeña,42.7797744,-5.0055719,2                                                                                                   
05803,La Asunción Universidad,42.6160983,-5.5660988,2                                                                                                 
06002,Alhama De Murcia,37.8494024,-1.4145141,2                                                                                                        
06003,Totana,37.7635424,-1.4956153,2                                                                                                                  
06005,Lorca-San Diego,37.6807168,-1.6856452,2                                                                                                         
06006,Lorca-Sutullena,37.6721129,-1.6962305,2                                                                                                         
06007,Puerto Lumbreras,37.5810062,-1.7318752,2                                                                                                        
06100,Almendricos,37.4748802,-1.7796299,2                                                                                                             
07001,Pulpí,37.3992033,-1.7494862,2                                                                                                                   
07003,Jaravía,37.3924632,-1.6930400,2                                                                                                                 
07004,águilas,37.4098650,-1.5725342,2                                                                                                                 
07007,águilas-El Labradorcico,37.4119664,-1.5858719,2                                                                                                 
10000,Madrid-Príncipe Pío,40.4214895,-3.7189689,1                                                                                                     
10001,Aravaca,40.4484551,-3.7855547,2                                                                                                                 
10002,Pozuelo,40.4474569,-3.8002779,2                                                                                                                 
10005,Las Rozas,40.4942887,-3.8681747,2                                                                                                               
10007,Majadahonda,40.4742885,-3.8462931,2                                                                                                             
10010,El Barrial-Centro Comercial Pozuelo,40.4653918,-3.8076854,2                                                                                     
10100,Pinar De Las Rozas,40.5222672,-3.8822477,2                                                                                                      
10101,Las Matas,40.5523869,-3.8967664,2                                                                                                               
10103,Torrelodones,40.5745540,-3.9566013,2                                                                                                            
10104,Galapagar-La Navata,40.6003138,-3.9822590,2                                                                                                     
10200,Villalba De Guadarrama,40.6264893,-4.0080301,1                                                                                                  
10201,San Yago,40.6178953,-4.0310749,2                                                                                                                
10202,Las Zorreras-Navalquejigo,40.6093116,-4.0463626,2                                                                                               
10203,El Escorial,40.5853675,-4.1324053,2                                                                                                             
10204,Zarzalejo,40.5389272,-4.1580662,2                                                                                                               
10205,Robledo De Chavela,40.5208244,-4.2467592,2                                                                                                      
10206,Santa María De La Alameda-Peguerinos,40.5690010,-4.2691255,2                                                                                    
10207,Las Navas Del Marqués,40.5892050,-4.3622590,2                                                                                                   
10208,Navalperal,40.5911520,-4.4083820,2                                                                                                              
10209,El Pimpollar,40.5675870,-4.2835410,2                                                                                                            
10300,Herradón-La Cañada,40.5992750,-4.4950390,2                                                                                                      
10302,Guimorcondo,40.6490620,-4.6149870,2                                                                                                             
10400,ávila,40.6572550,-4.6833120,1                                                                                                                   
10409,Arévalo,41.0471230,-4.7019880,2                                                                                                                 
10500,Medina Del Campo,41.3176170,-4.9099230,1                                                                                                        
10600,Valladolid-Campo Grande,41.6421670,-4.7269860,1                                                                                                 
11000,Venta De Baños,41.9173600,-4.4958440,2                                                                                                          
11004,Magaz,41.9765610,-4.4321140,2                                                                                                                   
11006,Quintana Del Puente,42.0799740,-4.1985800,2                                                                                                     
11009,Villaquirán,42.2157170,-3.9993960,2                                                                                                             
11014,Burgos-Rosa Manzano,42.3711970,-3.6663080,1                                                                                                     
11109,Briviesca,42.5427650,-3.3192870,2                                                                                                               
11305,Brinkola,43.0189865,-2.3346811,2                                                                                                                
11306,Legazpi,43.0510385,-2.3306103,2                                                                                                                 
11400,Zumarraga,43.0870824,-2.3202298,2                                                                                                               
11402,Ormáiztegui,43.0402752,-2.2564620,2                                                                                                             
11404,Beasain,43.0462687,-2.2022994,2                                                                                                                 
11405,Ordizia,43.0527547,-2.1791923,2                                                                                                                 
11406,Itsasondo,43.0683298,-2.1624850,2                                                                                                               
11407,Legorreta,43.0856948,-2.1408977,2                                                                                                               
11408,Ikaztegieta,43.0940398,-2.1255773,2                                                                                                             
11409,Alegia,43.1017599,-2.0971400,2                                                                                                                  
11500,Tolosa,43.1354472,-2.0790886,2                                                                                                                  
11501,Tolosa-Centro,43.1393963,-2.0741122,2                                                                                                           
11502,Anoeta,43.1626064,-2.0703897,2                                                                                                                  
11503,Billabona-Zizurkil,43.1891906,-2.0553722,2                                                                                                      
11504,Andoain-Centro,43.2155738,-2.0204595,2                                                                                                          
11505,Andoain,43.2220458,-2.0156757,2                                                                                                                 
11506,Urnieta,43.2474669,-1.9884271,2                                                                                                                 
11507,Hernani-Erdia,43.2664779,-1.9726232,2                                                                                                           
11508,Hernani,43.2725113,-1.9637735,2                                                                                                                 
11509,Martutene,43.2991128,-1.9561747,2                                                                                                               
11510,Loiola,43.3046746,-1.9636294,2                                                                                                                  
11511,San Sebastián-Donostia,43.3176961,-1.9767172,1                                                                                                  
11512,Gros,43.3218457,-1.9738835,2                                                                                                                    
11513,Ategorrieta,43.3203225,-1.9598127,2                                                                                                             
11514,Herrera,43.3193537,-1.9370173,2                                                                                                                 
11515,Pasaia,43.3189428,-1.9171727,2                                                                                                                  
11516,Lezo-Rentería,43.3159364,-1.8994386,2                                                                                                           
11518,Ventas De Irún,43.3304116,-1.8167813,2                                                                                                          
11522,Intxaurrondo,43.3200487,-1.9517673,2                                                                                                            
11600,Irun,43.3395365,-1.8012519,1                                                                                                                    
12001,Los Negrales,40.6385670,-4.0218746,2                                                                                                            
12002,Alpedrete,40.6581044,-4.0349719,2                                                                                                               
12004,Collado Mediano,40.6928982,-4.0359271,2                                                                                                         
12005,Los Molinos-Guadarrama,40.7066407,-4.0671991,2                                                                                                  
12006,Cercedilla,40.7376129,-4.0662985,2                                                                                                              
12007,Tablada,40.7056480,-4.1253100,2                                                                                                                 
12008,Gudillos,40.7169140,-4.1576810,2                                                                                                                
12009,San Rafael,40.7149440,-4.1814300,2                                                                                                              
12010,El Espinar,40.7408520,-4.1894820,2                                                                                                              
12011,Los ángeles De San Rafael,40.7779090,-4.2069330,2                                                                                               
12012,Otero-Herreros,40.8009700,-4.2035040,2                                                                                                          
12013,Ortigosa Del Monte,40.8327710,-4.1680940,2                                                                                                      
12014,Navas De Riofrío-La Losa,40.8566730,-4.1411030,2                                                                                                
12020,Puerto De Navacerrada,40.7844678,-4.0047744,2                                                                                                   
12023,Los Cotos,40.8223419,-3.9644961,2                                                                                                               
12100,Segovia,40.9340300,-4.1136500,2                                                                                                                 
13100,Orduña,42.9946191,-3.0158139,2                                                                                                                  
13101,Amurrio,43.0490510,-3.0020176,2                                                                                                                 
13102,Salbio,43.0741720,-2.9993953,2                                                                                                                  
13103,Luiaondo,43.0935926,-2.9996644,2                                                                                                                
13104,Santa Cruz De Llodio,43.1328630,-2.9698375,2                                                                                                    
13106,Llodio,43.1423514,-2.9606511,2                                                                                                                  
13107,Areta,43.1451273,-2.9433913,2                                                                                                                   
13108,Arbide,43.1632587,-2.9278362,2                                                                                                                  
13109,Arrankudiaga,43.1694994,-2.9184485,2                                                                                                            
13110,Ugao-Miraballes,43.1790833,-2.9026960,2                                                                                                         
13111,Arrigorriaga,43.2100868,-2.8885723,2                                                                                                            
13112,Basauri,43.2235298,-2.8823858,2                                                                                                                 
13113,Bidebieta-Basauri,43.237057,-2.8894856,2                                                                                                        
13114,Ollargan,43.2424974,-2.9164564,2                                                                                                                
13115,Bakiola,43.1769858,-2.9090700,2                                                                                                                 
13116,Iñarratxu,43.0358243,-3.0038794,2                                                                                                               
13117,Arakaldo,43.1535592,-2.9382027,2                                                                                                                
13118,Abaroa-San Miguel,43.2256480,-2.8871139,2                                                                                                       
13119,La Peña De Bilbao,43.2401669,-2.9240429,2                                                                                                       
13120,Miribilla,43.2504290,-2.9305155,2                                                                                                               
13121,Amurrio Iparralde,43.0578453,-2.9960659,2                                                                                                       
13200,Bilbao-Intermod. Abando Indalecio Prieto,43.2601304,-2.9285592,1                                                                                
13205,Zabalburu,43.2567911,-2.9322841,2                                                                                                               
13206,Ametzola,43.2547065,-2.9436598,2                                                                                                                
13207,Autonomía,43.2581339,-2.9460321,2                                                                                                               
13208,San Mamés,43.2615306,-2.9488341,2                                                                                                               
13303,Olabeaga,43.2643804,-2.9553272,2                                                                                                                
13304,Zorrotza,43.2778039,-2.9721188,2                                                                                                                
13305,Lutxana-Barakaldo,43.2878137,-2.9754132,2                                                                                                       
13400,Desertu-Barakaldo,43.3000264,-2.9844090,2                                                                                                       
13401,Sestao,43.3085201,-2.9940107,2                                                                                                                  
13402,La Iberia,43.3127031,-3.0044959,2                                                                                                               
13403,Portugalete,43.3186760,-3.0152296,2                                                                                                             
13404,Peñota,43.3263563,-3.0234574,2                                                                                                                  
13405,Santurtzi,43.3286605,-3.0295685,2                                                                                                               
13501,Galindo,43.3041349,-3.0101966,2                                                                                                                 
13502,Trápaga,43.3030265,-3.0169907,2                                                                                                                 
13503,Valle De Trápaga/Trapagaran,43.3014842,-3.0287951,2                                                                                             
13504,Ortuella,43.3115122,-3.0603549,2                                                                                                                
13505,Putxeta,43.3156801,-3.0911356,2                                                                                                                 
13506,Muskiz,43.3215111,-3.1123207,2                                                                                                                  
13507,Urioste,43.3075315,-3.0410720,2                                                                                                                 
13508,Gallarta,43.3193319,-3.0674521,2                                                                                                                
13509,Sagrada Familia,43.3082365,-3.0528979,2                                                                                                         
14100,Palencia,42.0157110,-4.5341350,1                                                                                                                
14200,Mataporquera,42.8709010,-4.1654060,2                                                                                                            
14202,Reinosa,42.9944991,-4.1409454,2                                                                                                                 
14203,Lantueno-Santiurde,43.0580731,-4.0840131,2                                                                                                      
14204,Pesquera,43.0823330,-4.0738143,2                                                                                                                
14206,Bárcena,43.1287054,-4.0534730,2                                                                                                                 
14207,Molledo-Portolín,43.1456269,-4.0390334,2                                                                                                        
14208,Santa Cruz De Iguña,43.1701216,-4.0450627,2                                                                                                     
14209,Las Fraguas,43.1932190,-4.0541127,2                                                                                                             
14210,Los Corrales De Buelna,43.2551009,-4.0639472,2                                                                                                  
14211,Las Caldas De Besaya,43.2985945,-4.0732520,2                                                                                                    
14212,Viérnoles,43.3245636,-4.0540441,2                                                                                                               
14213,Torrelavega,43.3276776,-4.0426871,2                                                                                                             
14214,Sierrapando,43.3417845,-4.0266342,2                                                                                                             
14215,Zurita,43.3476712,-3.9910501,2                                                                                                                  
14216,Renedo,43.3531069,-3.9496471,2                                                                                                                  
14217,Parbayón,43.3767446,-3.8942201,2                                                                                                                
14218,Guarnizo,43.3915101,-3.8595450,2                                                                                                                
14219,Boo,43.4104796,-3.8415883,2                                                                                                                     
14220,Maliaño,43.4161415,-3.8410762,2                                                                                                                 
14223,Santander,43.4583981,-3.8109529,1                                                                                                               
14230,Valdecilla,43.4540888,-3.8277628,2                                                                                                              
14231,Nueva Montaña,43.4401137,-3.8493866,2                                                                                                           
14232,Lombera,43.2658249,-4.0675902,2                                                                                                                 
14233,Río Ebro,43.0007554,-4.1344006,2                                                                                                                
14234,Pujayo,43.1228745,-4.0823753,2                                                                                                                  
14235,Arenas De Iguña,43.1850828,-4.0500754,2                                                                                                         
14236,Vioño,43.3606470,-3.9648063,2                                                                                                                   
14237,Muriedas-Bahía,43.4216858,-3.8441175,2                                                                                                          
15118,Puente De Los Fierros,43.0715986,-5.7694650,2                                                                                                   
15119,La Frecha,43.0961670,-5.7985997,2                                                                                                               
15120,Campomanes,43.1100681,-5.8164466,2                                                                                                              
15121,La Cobertoria,43.1301608,-5.8160304,2                                                                                                           
15122,Pola De Lena,43.1587200,-5.8310263,2                                                                                                            
15123,Villallana,43.1838568,-5.8145928,2                                                                                                              
15200,Ujo,43.2046962,-5.7926422,1                                                                                                                     
15202,Santullano,43.2208990,-5.7855868,2                                                                                                              
15203,Mieres-Puente,43.2500266,-5.7822622,1                                                                                                           
15205,Ablaña,43.2676032,-5.8057926,2                                                                                                                  
15206,La Pereda-Riosa,43.2770867,-5.8122350,2                                                                                                         
15207,Olloniego,43.2961226,-5.8188502,2                                                                                                               
15208,Soto De Rey,43.3064094,-5.8558072,2                                                                                                             
15209,Las Segadas,43.3132419,-5.8691978,2                                                                                                             
15210,El Caleyo,43.3290466,-5.8733323,2                                                                                                               
15211,Oviedo,43.3663577,-5.8548380,1                                                                                                                  
15212,Lugones,43.4042720,-5.8117818,1                                                                                                                 
15217,La Corredoria,43.3881080,-5.8272527,1                                                                                                           
15218,Llamaquique,43.3588282,-5.8573201,1                                                                                                             
15300,Lugo De Llanera,43.4423322,-5.8158932,1                                                                                                         
15301,Villabona De Asturias,43.4615187,-5.8263463,2                                                                                                   
15302,Serín,43.5049050,-5.7818821,2                                                                                                                   
15303,Monteana,43.5208475,-5.7463580,2                                                                                                                
15305,Villabona-Tabladiello,43.4741624,-5.8000538,2                                                                                                   
15400,Veriña,43.5415755,-5.7227970,2                                                                                                                  
15401,Calzada De Asturias,43.5353848,-5.6971507,2                                                                                                     
15410,Gijón-Sanz Crespo,43.5377329,-5.6758089,1                                                                                                       
16001,Santa Eulalia De Manzaneda,43.3173375,-5.8126204,1                                                                                              
16002,Tudela-Veguín,43.3310103,-5.7768925,2                                                                                                           
16005,Peña Rubia,43.3213020,-5.7208059,2                                                                                                              
16006,Barros,43.3178302,-5.7109141,1                                                                                                                  
16008,La Felguera,43.3048310,-5.6928516,2                                                                                                             
16009,Sama,43.2987784,-5.6833209,2                                                                                                                    
16010,Ciaño,43.2893884,-5.6686704,2                                                                                                                   
16011,El Entrego,43.2895167,-5.6408474,1                                                                                                              
16301,Ferroñes,43.4760338,-5.8616217,2                                                                                                                
16302,Cancienes,43.5073330,-5.8692521,2                                                                                                               
16400,Nubledo,43.5234229,-5.8703014,2                                                                                                                 
16401,Villalegre,43.5400404,-5.9022308,2                                                                                                              
16402,La Rocica,43.5471015,-5.9047083,2                                                                                                               
16403,Avilés,43.5613390,-5.9228329,2                                                                                                                  
16405,San Juan De Nieva,43.5895359,-5.9325513,1                                                                                                       
16408,Los Campos,43.5365119,-5.8848823,2                                                                                                              
17000,Madrid-Chamartín-Clara Campoamor,40.4711789,-3.6829524,1                                                                                        
17001,Fuencarral,40.5015603,-3.6825042,2                                                                                                              
17003,El Goloso,40.5588966,-3.7139714,2                                                                                                               
17004,Tres Cantos,40.5987417,-3.7155585,2                                                                                                             
17005,Colmenar Viejo,40.6452094,-3.7766142,2                                                                                                          
17009,Universidad-Cantoblanco,40.5438416,-3.7001551,1                                                                                                 
18000,Madrid-Atocha Cercanías,40.4066191,-3.6894391,1                                                                                                 
18001,Madrid-Recoletos,40.4233731,-3.6909310,2                                                                                                        
18002,Madrid-Nuevos Ministerios,40.4466271,-3.6923468,1                                                                                               
18003,Méndez álvaro P.v.,40.3957768,-3.6778440,2                                                                                                      
18004,Delicias,40.4004375,-3.6927766,2                                                                                                                
18005,Pirámides,40.4025341,-3.7113623,2                                                                                                               
18101,Sol,40.4168665,-3.7028765,2                                                                                                                     
19001,Universidad Pontificia De Comillas,40.5539697,-3.6836997,1                                                                                      
19002,Valdelasfuentes,40.5474339,-3.6543237,1                                                                                                         
19003,Alcobendas-San Sebastián De Los Reyes,40.5465765,-3.6351731,1                                                                                   
21010,Ferrol,43.4880467,-8.2310664,1                                                                                                                  
30000,Monfragüe,39.9374640,-6.1009100,2                                                                                                               
30002,Plasencia,40.0222820,-6.0993970,2                                                                                                               
35001,Leganés,40.3286430,-3.7713161,2                                                                                                                 
35002,Fuenlabrada,40.2833784,-3.7994429,2                                                                                                             
35005,Illescas,40.1208800,-3.8422620,2                                                                                                                
35009,Zarzaquemada,40.3408526,-3.7482632,2                                                                                                            
35010,La Serna-Fuenlabrada,40.2968173,-3.7926235,2                                                                                                    
35011,Parque Polvoranca,40.3125738,-3.7834937,2                                                                                                       
35012,Humanes,40.2558101,-3.8287055,2                                                                                                                 
35105,Torrijos,39.9790030,-4.2830370,2                                                                                                                
35109,Montearagón,39.9609960,-4.6470930,2                                                                                                             
35200,Talavera De La Reina,39.9706740,-4.8265120,2                                                                                                    
35203,Oropesa De Toledo,39.9217460,-5.1861370,2                                                                                                       
35206,Navalmoral De La Mata,39.8949130,-5.5456070,2                                                                                                   
35400,Cáceres,39.4611310,-6.3856790,1                                                                                                                 
35600,Aluche,40.3856677,-3.7607343,2                                                                                                                  
35601,Maestra Justa Freire-Polidep. Aluche,40.3836379,-3.7686869,2                                                                                    
35602,Las águilas,40.3810220,-3.7801636,2                                                                                                             
35603,Cuatro Vientos,40.3777651,-3.7915100,2                                                                                                          
35604,San José De Valderas,40.3566130,-3.8155730,2                                                                                                    
35605,Alcorcón,40.3502269,-3.8317018,2                                                                                                                
35606,Móstoles,40.3286626,-3.8636221,2                                                                                                                
35607,Móstoles-El Soto,40.3310640,-3.8824560,2                                                                                                        
35608,Laguna,40.3990603,-3.7442305,2                                                                                                                  
35609,Embajadores,40.4046484,-3.7025790,2                                                                                                             
35610,Las Retamas,40.3421153,-3.8424636,2                                                                                                             
35702,Doce De Octubre,40.3789210,-3.6986988,2                                                                                                         
35703,Orcasitas,40.3671021,-3.7042307,2                                                                                                               
35704,Puente Alcocer,40.3504482,-3.7051154,2                                                                                                          
37001,Madrid-Villaverde Alto,40.3415895,-3.7123508,2                                                                                                  
37002,Getafe-Centro,40.3100045,-3.7339878,1                                                                                                           
37010,Las Margaritas,40.3230989,-3.7272863,1                                                                                                          
37011,Getafe-Sector 3,40.2883893,-3.7374991,1                                                                                                         
37012,Parla,40.2410986,-3.7692699,1                                                                                                                   
37500,Mérida,38.9215030,-6.3437940,1                                                                                                                  
40002,Calamonte,38.8869310,-6.3829650,2                                                                                                               
40004,Almendralejo,38.6846620,-6.3998150,2                                                                                                            
40005,Villafranca De Los Barros,38.5644020,-6.3520480,2                                                                                               
40006,Los Santos De Maimona,38.4497240,-6.3617490,2                                                                                                   
40008,Zafra Feria,38.4244030,-6.4100840,2                                                                                                             
40100,Zafra,38.4136350,-6.4050830,2                                                                                                                   
40105,Llerena,38.2370000,-6.0090170,2                                                                                                                 
40107,Fuente Del Arco,38.1635300,-5.9004840,2                                                                                                         
40108,Guadalcanal,38.0901970,-5.8033880,2                                                                                                             
40113,Cazalla-Constantina,37.9328637,-5.7044330,2                                                                                                     
40115,Pedroso,37.8373919,-5.7624522,2                                                                                                                 
40119,Villanueva Del Río-Minas,37.6617048,-5.7121543,2                                                                                                
40121,Alcolea Del Río,37.6354557,-5.7308309,2                                                                                                         
40122,Tocina,37.6093044,-5.7316939,2                                                                                                                  
43000,San Jerónimo,37.4331730,-5.9803600,2                                                                                                            
43002,Camas,37.4177385,-6.0408469,2                                                                                                                   
43003,Villanueva Del Ariscal Y Olivares,37.4071375,-6.1481895,2                                                                                       
43004,Sanlúcar La Mayor,37.3814397,-6.1939625,2                                                                                                       
43005,Benacazón,37.3568512,-6.2082011,2                                                                                                               
43026,Valencina-Santiponce,37.4268127,-6.0566858,2                                                                                                    
43027,Salteras,37.4102348,-6.0992391,2                                                                                                                
50600,Lora Del Río,37.6613212,-5.5295514,2                                                                                                            
50602,Guadajoz,37.5814594,-5.6699795,2                                                                                                                
50700,Los Rosales,37.5899718,-5.7261208,1                                                                                                             
50701,Cantillana,37.5749689,-5.8032073,2                                                                                                              
50702,Brenes,37.5463276,-5.8667821,2                                                                                                                  
50703,La Rinconada,37.4800897,-5.9401190,2                                                                                                            
50704,El Cáñamo,37.4863952,-5.9329750,2                                                                                                               
51003,Sevilla-Santa Justa,37.3924955,-5.9749269,1                                                                                                     
51009,Palacio De Congresos,37.4036456,-5.9362636,1                                                                                                    
51010,Padre Pío-Palmete,37.3708520,-5.9394111,1                                                                                                       
51050,Cartuja,37.4074574,-6.0101856,2                                                                                                                 
51051,Estadio Olímpico,37.4174307,-6.0074960,2                                                                                                        
51100,San Bernardo,37.3777778,-5.9796142,1                                                                                                            
51101,La Salud,37.3299833,-5.9637916,2                                                                                                                
51103,Dos Hermanas,37.2872259,-5.9235322,2                                                                                                            
51110,Virgen Del Rocío,37.3628091,-5.9760105,1                                                                                                        
51111,Bellavista,37.3215188,-5.9641924,2                                                                                                              
51112,Cantaelgallo,37.2782197,-5.9104397,1                                                                                                            
51113,Jardines De Hércules,37.3328527,-5.9640940,2                                                                                                    
51200,Utrera,37.1848178,-5.7907537,1                                                                                                                  
51202,Las Cabezas De San Juan,37.0194897,-5.9465800,2                                                                                                 
51203,Lebrija,36.9116378,-6.0948487,1                                                                                                                 
51205,Aeropuerto De Jerez,36.7515886,-6.0659384,2                                                                                                     
51300,Jerez De La Frontera,36.6800220,-6.1266032,1                                                                                                    
51400,Puerto De Santa María,36.6040723,-6.2179261,1                                                                                                   
51401,Puerto Real,36.5309155,-6.1853143,1                                                                                                             
51402,San Fernando-Centro,36.4759612,-6.1940322,1                                                                                                     
51404,Segunda Aguada,36.5135317,-6.2770128,1                                                                                                          
51405,Cádiz,36.5289350,-6.2879716,1                                                                                                                   
51406,San Fernando-Bahía Sur,36.4680834,-6.2067676,1                                                                                                  
51407,Cortadura,36.4943672,-6.2682384,2                                                                                                               
51409,Cádiz-Estadio,36.5029461,-6.2720644,1                                                                                                           
51414,San Severiano,36.5216048,-6.2806706,1                                                                                                           
51415,Las Aletas,36.5446380,-6.1990088,1                                                                                                              
51416,Universidad De Cádiz,36.5292509,-6.2061686,2                                                                                                    
51417,Valdelagrana,36.5847249,-6.2162993,1                                                                                                            
51419,Río Arillo,36.4574943,-6.2236261,2                                                                                                              
51450,Pelagatos,36.4087561,-6.1343224,2                                                                                                               
51451,La Hoya,36.4112449,-6.1390947,2                                                                                                                 
51452,Reyes Católicos,36.4144119,-6.1431897,2                                                                                                         
51453,Nuestra Señora De Los Remedios,36.4203978,-6.1447469,2                                                                                          
51454,Alameda Solano,36.4253775,-6.1445236,2                                                                                                          
51455,Marquesado,36.4286404,-6.1433744,2                                                                                                              
51456,Pinar De Los Franceses,36.4405201,-6.1445658,2                                                                                                  
51457,Tres Caminos,36.4665227,-6.1757059,2                                                                                                            
51458,Venta De Vargas,36.4677391,-6.1910642,2                                                                                                         
51459,Plaza De La Iglesia,36.4662187,-6.1955495,2                                                                                                     
51460,Plaza Del Rey,36.4639443,-6.1983443,2                                                                                                           
51461,Compañía De María,36.4604371,-6.2010115,2                                                                                                       
51462,Plaza Del Carmen,36.4581593,-6.2034887,2                                                                                                        
51463,Santo Entierro,36.4559070,-6.2096161,2                                                                                                          
51464,La Ardila,36.4562497,-6.2160272,2                                                                                                               
54403,El Chorro-Caminito Del Rey,36.9073350,-4.7592580,2                                                                                              
54404,Las Mellizas,36.8733060,-4.7194330,2                                                                                                            
54405,álora,36.8198747,-4.6996105,2                                                                                                                   
54406,Pizarra,36.7641515,-4.7118313,2                                                                                                                 
54407,Aljaima,36.7330833,-4.6645001,2                                                                                                                 
54408,Cártama,36.7337392,-4.6083966,2                                                                                                                 
54410,Campanillas,36.7050436,-4.5454825,2                                                                                                             
54412,Málaga-Los Prados,36.6986108,-4.4781500,2                                                                                                       
54500,Málaga M.z. Cercanías,36.7113885,-4.4328909,2                                                                                                   
54501,Victoria Kent,36.7012229,-4.4544145,1                                                                                                           
54503,Guadalhorce,36.6920757,-4.4836844,1                                                                                                             
54505,Málaga-Aeropuerto,36.6777169,-4.4901607,1                                                                                                       
54508,La Colina,36.6419236,-4.4926383,1                                                                                                               
54509,Torremolinos,36.6225596,-4.4995700,2                                                                                                            
54510,El Pinillo,36.6098688,-4.5153735,1                                                                                                              
54511,Benalmádena-Arroyo De La Miel,36.5991116,-4.5363459,1                                                                                           
54512,Torremuelle,36.5822966,-4.5670183,1                                                                                                             
54513,Carvajal,36.5702590,-4.5940491,1                                                                                                                
54514,Torreblanca Del Sol,36.5649071,-4.6067106,1                                                                                                     
54515,Los Boliches,36.5546583,-4.6145767,2                                                                                                            
54516,Fuengirola,36.5418947,-4.6238580,1                                                                                                              
54517,Málaga-Centro Alameda,36.7159539,-4.4265335,2                                                                                                   
54518,Los álamos,36.6450587,-4.4851186,1                                                                                                              
54519,Montemar Alto,36.6136673,-4.5094259,1                                                                                                           
54520,Plaza Mayor,36.6562029,-4.4803044,1                                                                                                             
60100,Madrid-Villaverde Bajo,40.3526762,-3.6838977,1                                                                                                  
60101,San Cristóbal Industrial,40.3318587,-3.6989600,2                                                                                                
60102,Getafe-Industrial,40.3057176,-3.7078359,2                                                                                                       
60103,Pinto,40.2428555,-3.7035303,2                                                                                                                   
60104,Valdemoro,40.1960779,-3.6649372,1                                                                                                               
60105,Ciempozuelos,40.1592011,-3.6101851,2                                                                                                            
60107,San Cristóbal De Los ángeles,40.3424144,-3.6839795,1                                                                                            
60109,El Casar,40.3185223,-3.7098062,1                                                                                                                
60200,Aranjuez,40.0350257,-3.6182534,2                                                                                                                
60902,Villena,38.6317380,-0.8676890,1                                                                                                                 
60904,Sax,38.5442510,-0.8137290,2                                                                                                                     
60905,Elda-Petrer,38.4848790,-0.8010900,2                                                                                                             
60907,Novelda-Aspe,38.4070860,-0.7777440,2                                                                                                            
60911,Alicante/Alacant-Terminal,38.3447127,-0.4955241,1                                                                                               
60913,Sant Vicent Centre,38.3946533,-0.5287247,2                                                                                                      
60914,Universidad De Alicante,38.3841650,-0.5284110,2                                                                                                 
61200,Murcia Del Carmen,37.9748243,-1.1315080,1                                                                                                       
61303,Balsicas-Mar Menor,37.8188400,-0.9508910,2                                                                                                      
61304,Torre-Pacheco,37.7469050,-0.9670780,2                                                                                                           
61307,Cartagena,37.6049670,-0.9751220,1                                                                                                               
62001,Beniel,38.0448608,-0.9994759,2                                                                                                                  
62002,Orihuela-Miguel Hernández,38.0779321,-0.9446060,2                                                                                               
62003,Callosa De Segura,38.1227686,-0.8745747,2                                                                                                       
62100,San Isidro-Albatera-Catral,38.1670209,-0.8380854,2                                                                                              
62101,Crevillente,38.2245622,-0.7815283,2                                                                                                             
62102,Elche/Elx-Carrús,38.2689783,-0.7063992,2                                                                                                        
62103,Elche/Elx-Parc,38.2717809,-0.6952193,2                                                                                                          
62104,Torrellano,38.2896365,-0.5824572,2                                                                                                              
62109,Sant Gabriel,38.3290647,-0.5086866,2                                                                                                            
64003,Moixent,38.8777975,-0.7536507,2                                                                                                                 
64004,Vallada,38.9089907,-0.6902385,2                                                                                                                 
64005,Montesa,38.9429388,-0.6410905,2                                                                                                                 
64006,L'alcúdia De Crespins,38.9690579,-0.5866758,2                                                                                                   
64007,Lenova-Manuel,39.0500727,-0.4776036,2                                                                                                           
64100,Xàtiva,38.9921480,-0.5245402,1                                                                                                                  
64102,La Pobla Llarga,39.0833385,-0.4696592,2                                                                                                         
64103,Carcaixent,39.1205251,-0.4544102,2                                                                                                              
64104,Alzira,39.1531495,-0.4506011,2                                                                                                                  
64105,Algemesí,39.1931484,-0.4409196,2                                                                                                                
64107,Benifaió,39.2843027,-0.4299537,2                                                                                                                
64200,Silla,39.3619548,-0.4149813,2                                                                                                                   
64201,Catarroja,39.4000447,-0.3992195,2                                                                                                               
64202,Massanassa,39.4091934,-0.3953073,2                                                                                                              
64203,Alfafar-Benetússer,39.4224232,-0.3926050,2                                                                                                      
64210,Albal,39.3918429,-0.4026343,2                                                                                                                   
65000,València-Estació Del Nord,39.4669305,-0.3772239,1                                                                                               
65001,Roca-Cúper,39.5262094,-0.3238405,2                                                                                                              
65002,València-La Font De Sant Lluís,39.4416052,-0.3714220,2                                                                                          
65003,València-Cabanyal,39.4702456,-0.3346772,2                                                                                                       
65005,Albuixech,39.5435233,-0.3205526,2                                                                                                               
65006,Massalfassar,39.5557532,-0.3183058,2                                                                                                            
65007,El Puig,39.5883020,-0.3116645,2                                                                                                                 
65008,Puçol,39.6205367,-0.3031085,2                                                                                                                   
65200,Sagunt,39.6758025,-0.2715420,1                                                                                                                  
65201,Les Valls,39.7193457,-0.2397602,2                                                                                                               
65202,Almenara,39.7487737,-0.2183811,2                                                                                                                
65203,La Llosa,39.7678109,-0.2029444,2                                                                                                                
65204,Chilches/Xilxes,39.7826726,-0.1903295,2                                                                                                         
65205,Moncofa,39.8208891,-0.1626965,2                                                                                                                 
65206,Nules La Villavella,39.8532354,-0.1527317,2                                                                                                     
65207,Burriana-Alquerías Niño Perdido,39.8965088,-0.1038601,2                                                                                         
65208,Vila-Real,39.9330935,-0.0967681,2                                                                                                               
65209,Almassora,39.9549079,-0.0767713,2                                                                                                               
65300,Castelló De La Plana,39.9884736,-0.0523456,1                                                                                                    
65304,Orpesa,40.0922580,0.13986100,2                                                                                                                  
65306,Torreblanca,40.2122110,0.19877900,2                                                                                                             
65308,Alcalá De Chivert,40.3046900,0.22871700,2                                                                                                       
65311,Benicarló-Peñíscola,40.4276390,0.41521700,1                                                                                                     
65312,Vinaròs,40.4716820,0.45572700,1                                                                                                                 
65314,Ulldecona-Alcanar-La Sénia,40.5959267,0.44927448,2                                                                                              
65318,Benicàssim,40.0579451,0.05776460,2                                                                                                              
65400,Tortosa,40.8073330,0.52301360,1                                                                                                                 
65401,Camp-Redó,40.7591556,0.55584433,2                                                                                                               
65402,L'aldea-Amposta-Tortosa,40.7535640,0.61430923,1                                                                                                 
65403,Camarles-Deltebre,40.7747633,0.67176095,2                                                                                                       
65404,L'ampolla-El Perelló-Deltebre,40.8119898,0.70826336,2                                                                                           
65405,L'ametlla De Mar,40.8862000,0.80045321,2                                                                                                        
65411,Salou-Port Aventura,41.0884798,1.14605195,2                                                                                                     
65420,L'hospitalet De L'infant,40.9993900,0.91253887,2                                                                                                
65422,Cambrils,41.0815642,1.04603752,2                                                                                                                
66200,Utiel,39.5707742,-1.2024215,2                                                                                                                   
66201,San Antonio De Requena,39.5222997,-1.1503670,2                                                                                                  
66202,Requena,39.4912708,-1.1046578,2                                                                                                                 
66203,El Rebollar,39.4773604,-1.0116025,2                                                                                                             
66204,Siete Aguas,39.4572264,-0.9025067,2                                                                                                             
66206,Buñol,39.4271390,-0.7873638,2                                                                                                                   
66207,Chiva,39.4711268,-0.7229414,2                                                                                                                   
66208,Cheste,39.4909030,-0.6862639,2                                                                                                                  
66209,Loriguilla-Reva,39.4857771,-0.5673983,2                                                                                                         
66210,Circuit Ricardo Tormo,39.4954379,-0.6247545,2                                                                                                   
66211,Aldaia,39.4611179,-0.4632476,2                                                                                                                  
66212,València-Sant Isidre,39.4502194,-0.4039788,2                                                                                                    
66214,Xirivella-Alqueries,39.4626294,-0.4322160,2                                                                                                     
67007,Arañales De Muel,41.4689460,-1.0863940,2                                                                                                        
67010,Cariñena,41.3355860,-1.2284220,2                                                                                                                
67017,Ferreruela,41.0638700,-1.2393840,2                                                                                                              
67021,Calamocha,40.9038640,-1.2998410,2                                                                                                               
67100,Caminreal-Fuentes Claras,40.8511100,-1.3376500,2                                                                                                
67101,Torrijo Del Campo,40.8260120,-1.3404980,2                                                                                                       
67105,Santa Eulalia Del Campo,40.5729170,-1.3129950,2                                                                                                 
67107,Cella,40.4552660,-1.2443290,2                                                                                                                   
67113,Monreal Del Campo,40.7823210,-1.3607920,2                                                                                                       
67200,Teruel,40.3410290,-1.1102840,1                                                                                                                  
67205,Sarrión,40.1463390,-0.8236310,2                                                                                                                 
67206,Mora De Rubielos,40.1231420,-0.7861450,2                                                                                                        
67208,Barracas,40.0117400,-0.6961510,2                                                                                                                
67211,Caudiel,39.9473696,-0.5720537,2                                                                                                                 
67212,Jérica-Viver,39.9149777,-0.5693896,2                                                                                                            
67213,Navajas,39.8744166,-0.5059546,2                                                                                                                 
67214,Segorbe-Arrabal,39.8545570,-0.4938630,2                                                                                                         
67215,Segorbe-Ciudad,39.8471755,-0.4823544,2                                                                                                          
67216,Algimia-Ciudad,39.7529934,-0.3657542,2                                                                                                          
67217,Soneja,39.8126015,-0.4318206,2                                                                                                                  
67221,Estivella-Albalat Dels Tarongers,39.7064080,-0.3483240,2                                                                                        
67223,Gilet,39.6793985,-0.3206548,2                                                                                                                   
69001,Genovés,38.9877300,-0.4798800,2                                                                                                                 
69002,Benigànim,38.9384990,-0.4534240,2                                                                                                               
69003,La Pobla Del Duc,38.9076060,-0.4533860,2                                                                                                        
69004,Montaberner,38.8841350,-0.4916190,2                                                                                                             
69005,Bufalí,38.8674050,-0.5104780,2                                                                                                                  
69006,Albaida,38.8456450,-0.5181290,2                                                                                                                 
69007,Agullent,38.8305690,-0.5511830,2                                                                                                                
69008,Ontinyent,38.8096920,-0.6024570,2                                                                                                               
69009,Agres,38.7968290,-0.5217440,2                                                                                                                   
69010,Cocentaina,38.7406180,-0.4467890,2                                                                                                              
69011,Alcoi,38.7093490,-0.4702470,2                                                                                                                   
69101,El Romaní,39.3029789,-0.3942354,2                                                                                                               
69102,Sollana,39.2793471,-0.3793139,2                                                                                                                 
69103,Sueca,39.2058471,-0.3082388,2                                                                                                                   
69104,Cullera,39.1778885,-0.2632437,1                                                                                                                 
69105,Tavernes De La Valldigna,39.0790438,-0.2262966,2                                                                                                
69107,Xeraco,39.0261489,-0.2150346,2                                                                                                                  
69110,Gandia,38.9705140,-0.1797829,1                                                                                                                  
69111,Platja I Grau De Gandia,38.9902436,-0.1624339,2                                                                                                 
70001,Vallecas,40.3819607,-3.6245835,2                                                                                                                
70002,Asamblea De Madrid-Entrevías,40.3818618,-3.6680454,2                                                                                            
70003,El Pozo,40.3760377,-3.6561407,2                                                                                                                 
70100,Vicálvaro,40.4012524,-3.5958970,2                                                                                                               
70101,San Fernando De Henares,40.4427805,-3.5339866,2                                                                                                 
70102,Torrejón De Ardoz,40.4547895,-3.4797300,2                                                                                                       
70103,Alcalá De Henares,40.4890814,-3.3662457,2                                                                                                       
70104,Meco,40.5346731,-3.2986806,2                                                                                                                    
70105,Azuqueca,40.5610770,-3.2653970,2                                                                                                                
70107,Alcalá De Henares-Universidad,40.5054303,-3.3353258,2                                                                                           
70108,Coslada,40.4232370,-3.5611109,2                                                                                                                 
70109,Santa Eugenia,40.3869545,-3.6089855,2                                                                                                           
70111,La Garena,40.4805448,-3.3930055,2                                                                                                               
70112,Soto Del Henares,40.4639640,-3.4414076,2                                                                                                        
70200,Guadalajara,40.6441928,-3.1822602,2                                                                                                             
70202,Yunquera De Henares,40.7470130,-3.1632260,2                                                                                                     
70204,Humanes De Mohernando,40.8312730,-3.1388600,2                                                                                                   
70207,Espinosa De Henares,40.9096860,-3.0731570,2                                                                                                     
70208,Carrascosa De Henares,40.9059800,-3.0143520,2                                                                                                   
70209,Jadraque,40.9302290,-2.9359350,2                                                                                                                
70210,Matillas,40.9538080,-2.8432600,2                                                                                                                
70302,Sigüenza,41.0714170,-2.6464070,2                                                                                                                
70400,Torralba,41.1366170,-2.4929520,2                                                                                                                
70401,Medinaceli,41.1652070,-2.4212410,2                                                                                                              
70403,Arcos De Jalón,41.2158540,-2.2789980,2                                                                                                          
70404,Santa María De Huerta,41.2644210,-2.1775250,2                                                                                                   
70500,Ariza,41.3098000,-2.0594110,2                                                                                                                   
70501,Cetina,41.2959780,-1.9618110,2                                                                                                                  
70502,Alhama De Aragón,41.2943980,-1.9044540,2                                                                                                        
70504,Ateca,41.3246590,-1.7852680,2                                                                                                                   
70600,Calatayud,41.3466920,-1.6386800,1                                                                                                               
70700,Ricla-La Almunia,41.5013940,-1.4034500,2                                                                                                        
70800,Casetas,41.7226479,-1.0201916,1                                                                                                                 
70801,Utebo,41.7108644,-0.9985828,1                                                                                                                   
70806,Zaragoza-Portillo,41.6527361,-0.8958759,1                                                                                                       
70807,Zaragoza-Goya,41.6438779,-0.8912574,2                                                                                                           
71100,Zaragoza-Miraflores,41.6334311,-0.8681653,1                                                                                                     
71103,Fuentes De Ebro,41.5150650,-0.6186250,2                                                                                                         
71105,Quinto,41.4195280,-0.4906730,2                                                                                                                  
71108,La Zaida-Sástago,41.3205420,-0.4271150,2                                                                                                        
71200,La Puebla De Híjar,41.2244000,-0.4385950,2                                                                                                      
71201,Samper,41.1821830,-0.3687610,2                                                                                                                  
71204,Caspe,41.2397380,-0.0427010,2                                                                                                                   
71205,Val De Pilas,41.2300560,0.07014500,2                                                                                                            
71206,Fabara,41.2344050,0.14328400,2                                                                                                                  
71207,Nonaspe,41.2137880,0.24247200,2                                                                                                                 
71208,Faió-La Pobla De Massaluca,41.2250555,0.35110259,2                                                                                              
71209,Riba-Roja D'ebre,41.2485594,0.48103178,2                                                                                                        
71210,Flix,41.2293651,0.54010012,2                                                                                                                    
71211,Ascó,41.1823727,0.56902524,2                                                                                                                    
71300,Móra La Nova,41.1065823,0.65321819,2                                                                                                            
71302,Capçanes,41.1020902,0.78036099,2                                                                                                                
71303,Marçà-Falset,41.1309421,0.81041774,2                                                                                                            
71304,Pradell,41.1333595,0.85865032,2                                                                                                                 
71305,Duesaigües-L'argentera,41.1436928,0.92087096,2                                                                                                  
71306,Riudecanyes-Botarell,41.1400577,0.97574775,2                                                                                                    
71307,Les Borges Del Camp,41.1665064,1.02213230,2                                                                                                     
71400,Reus,41.1605229,1.10008978,1                                                                                                                    
71401,Vila-Seca,41.1128193,1.15037877,2                                                                                                               
71500,Tarragona,41.1115636,1.25322776,1                                                                                                               
71502,Altafulla-Tamarit,41.1366479,1.37341488,2                                                                                                       
71503,Torredembarra,41.1427923,1.40578377,1                                                                                                           
71600,Sant Vicenç De Calders,41.1862102,1.52480358,2                                                                                                  
71601,Calafell,41.1896703,1.57500937,2                                                                                                                
71602,Segur De Calafell,41.1925787,1.60643599,2                                                                                                       
71603,Cunit,41.1950415,1.63194242,2                                                                                                                   
71604,Cubelles,41.2043246,1.67597720,2                                                                                                                
71700,Vilanova I La Geltrú,41.2203207,1.73077249,2                                                                                                    
71701,Sitges,41.2391315,1.80969184,2                                                                                                                  
71703,Garraf,41.2545875,1.90250383,2                                                                                                                  
71704,Platja De Castelldefels,41.2669823,1.95713579,2                                                                                                 
71705,Castelldefels,41.2790474,1.97915126,2                                                                                                           
71706,Gavà,41.3034722,2.01053111,2                                                                                                                    
71707,El Prat De Llobregat,41.3309401,2.08934473,2                                                                                                    
71708,Bellvitge-Gornal,41.3549216,2.11527330,2                                                                                                        
71709,Viladecans,41.3095086,2.02741857,2                                                                                                              
71801,Barcelona-Sants,41.3798632,2.14101688,1                                                                                                         
71802,Barcelona-Passeig De Gràcia,41.3920862,2.16533862,2                                                                                             
72101,Roda De Mar,41.1864204,1.45520767,2                                                                                                             
72201,El Vendrell,41.2210057,1.53790552,2                                                                                                             
72202,L'arboç,41.2734041,1.60051857,2                                                                                                                 
72203,Els Monjos,41.3147135,1.65988402,2                                                                                                              
72204,Vilafranca Del Penedès,41.3448139,1.70320131,2                                                                                                  
72205,La Granada,41.3709497,1.72507893,2                                                                                                              
72206,Lavern-Subirats,41.3957338,1.76817358,2                                                                                                         
72207,Sant Sadurní D'anoia,41.4205181,1.79468769,2                                                                                                    
72208,Gelida,41.4485405,1.86552988,2                                                                                                                  
72209,Martorell-Central,41.4792866,1.92533467,2                                                                                                       
72210,Castellbisbal,41.4734152,1.96756971,2                                                                                                           
72211,El Papiol,41.4353713,2.00257792,2                                                                                                               
72300,Molins De Rei,41.4098958,2.02077275,2                                                                                                           
72301,Sant Feliu De Llobregat,41.3830018,2.04791970,2                                                                                                 
72302,Sant Joan Despí,41.3685805,2.06020835,2                                                                                                         
72303,Cornellà,41.3575214,2.07054907,2                                                                                                                
72305,L'hospitalet De Llobregat,41.3642038,2.10091749,2                                                                                               
72400,El Prat Aeroport,41.3041813,2.07340133,2                                                                                                        
72501,Rubí Can Vallhonrat,41.4751763,2.03707926,2                                                                                                     
72502,Sant Cugat Coll Favà,41.4810907,2.07967922,2                                                                                                    
72503,Cerdanyola Universitat,41.4969904,2.11537770,2                                                                                                  
72508,Santa Perpètua De Mogoda-Riera De Caldes,41.5262297,2.18633867,2                                                                                
73001,Puigverd De Lleida-Artesa,41.5537015,0.73342706,2                                                                                               
73002,Juneda,41.5439328,0.82554185,2                                                                                                                  
73003,Les Borges Blanques,41.5213973,0.87791022,2                                                                                                     
73004,La Floresta,41.5048872,0.9217547,2                                                                                                              
73005,Vinaixa,41.4251410,0.97037370,2                                                                                                                 
73006,Vimbodí I Poblet,41.4027277,1.04603327,2                                                                                                        
73007,L'espluga De Francolí,41.4006616,1.10336094,2                                                                                                   
73008,Montblanc,41.3766254,1.16554869,2                                                                                                               
73009,Vilaverd,41.3376633,1.17653235,2                                                                                                                
73010,La Riba,41.3184926,1.18131260,2                                                                                                                 
73100,La Plana-Picamoixons,41.3061987,1.19488293,2                                                                                                    
73101,Alcover,41.2616066,1.17416002,2                                                                                                                 
73102,La Selva Del Camp,41.2111544,1.14396003,2                                                                                                       
74200,Huesca,42.1335940,-0.4097450,1                                                                                                                  
74204,Ayerbe,42.2756100,-0.6825690,2                                                                                                                  
74206,Riglos,42.3447560,-0.7315990,2                                                                                                                  
74207,Santa María Y La Peña,42.3803900,-0.6956470,2                                                                                                   
74208,Anzánigo,42.4032890,-0.6433440,2                                                                                                                
74209,Caldearenas-Aquilué,42.3979730,-0.4993090,2                                                                                                     
74211,Sabiñánigo,42.5204460,-0.3730850,2                                                                                                              
74213,Jaca,42.5783030,-0.5392310,2                                                                                                                    
74214,Castiello-Pueblo,42.6281100,-0.5462910,2                                                                                                        
74216,Villanúa,42.6887450,-0.5234600,2                                                                                                                
74217,Canfranc,42.7514710,-0.5146410,2                                                                                                                
76001,Salomó,41.2234416,1.37662504,2                                                                                                                  
76002,Vilabella,41.2395473,1.31749155,2                                                                                                               
76003,Nulles-Bràfim,41.2503192,1.29750259,2                                                                                                           
76004,Valls,41.2896079,1.25865179,2                                                                                                                   
77002,Montcada-Ripollet,41.4968022,2.18192841,2                                                                                                       
77003,Santa Perpètua De Mogoda La Florida,41.5262041,2.18623384,2                                                                                     
77004,Mollet-Santa Rosa,41.5366617,2.20616865,2                                                                                                       
77005,Parets Del Vallès,41.5562690,2.22600409,2                                                                                                       
77006,Granollers-Canovelles,41.6114637,2.27686073,2                                                                                                   
77100,Les Franqueses Del Vallès,41.6297885,2.29516461,2                                                                                               
77102,La Garriga,41.6846272,2.28879559,2                                                                                                              
77103,Figaró,41.7213454,2.27160129,2                                                                                                                  
77104,Sant Martí De Centelles,41.7605736,2.24890462,2                                                                                                 
77105,Centelles,41.7993947,2.22263552,2                                                                                                               
77106,Balenyà-Els Hostalets,41.8149511,2.23331523,2                                                                                                   
77107,Balenyà-Tona-Seva,41.8419076,2.24744240,2                                                                                                       
77109,Vic,41.9310958,2.24885665,2                                                                                                                     
77110,Manlleu,41.9998601,2.26929589,2                                                                                                                 
77111,Torelló,42.0520113,2.25997226,2                                                                                                                 
77112,Borgonyà,42.0646586,2.24200567,2                                                                                                                
77113,Sant Quirze De Besora-Montesquiu,42.1048488,2.21773349,2                                                                                        
77114,La Farga De Bebié,42.1300729,2.20393566,2                                                                                                       
77200,Ripoll,42.1961284,2.19584128,2                                                                                                                  
77301,Campdevànol,42.2217131,2.16575839,2                                                                                                             
77303,Ribes De Freser,42.3002126,2.16619947,2                                                                                                         
77304,Planoles,42.3144689,2.09973152,2                                                                                                                
77305,Toses,42.3209639,2.01525836,2                                                                                                                   
77306,La Molina,42.3446518,1.95595081,2                                                                                                               
77307,Urtx-Alp,42.3768624,1.89685307,2                                                                                                                
77309,Puigcerdà,42.4296256,1.92458355,2                                                                                                               
77310,La Tour De Carol,42.4590288,1.90438312,2                                                                                                        
78400,Lleida-Pirineus,41.6201300,0.63365328,1                                                                                                         
78402,Bell-Lloc D'urgell,41.6316190,0.78154700,2                                                                                                      
78403,Mollerussa,41.6317790,0.89677500,2                                                                                                              
78404,Golmés,41.6359290,0.93086300,2                                                                                                                  
78405,Castellnou De Seana,41.6374640,0.96773600,2                                                                                                     
78406,Bellpuig,41.6325450,1.01299300,2                                                                                                                
78407,Anglesola,41.6464480,1.07919200,2                                                                                                               
78408,Tàrrega,41.6503870,1.13896300,2                                                                                                                 
78500,Cervera,41.6736110,1.27477300,2                                                                                                                 
78501,Sant Guim De Freixenet,41.6559240,1.42053000,2                                                                                                  
78502,Sant Martí Sesgueioles,41.7012170,1.48620400,2                                                                                                  
78503,Calaf,41.7303340,1.51509700,2                                                                                                                   
78504,Seguers-Sant Pere Sallavinera,41.7479910,1.57416700,2                                                                                           
78505,Aguilar De Segarra,41.7389170,1.62372000,2                                                                                                      
78506,Rajadell,41.7331590,1.69627500,2                                                                                                                
78600,Manresa,41.7203921,1.82648564,2                                                                                                                 
78604,Sant Vicenç De Castellet,41.6688309,1.86264304,2                                                                                                
78605,Castellbell I El Vilar-Monist Montserrat,41.6286826,1.86882093,2                                                                                
78606,Vacarisses,41.6019280,1.89408790,2                                                                                                              
78607,Vacarisses-Torreblanca,41.5869183,1.91647577,2                                                                                                  
78609,Viladecavalls,41.5637965,1.95727015,2                                                                                                           
78610,Sant Miquel De Gonteres,41.5688661,1.97428484,2                                                                                                 
78700,Terrassa Estació Del Nord,41.5697825,2.01435428,2                                                                                               
78703,Sabadell Sud,41.5287076,2.10539311,2                                                                                                            
78704,Sabadell Centre,41.5464197,2.11560767,2                                                                                                         
78705,Barberà Del Vallès,41.5136598,2.11845269,2                                                                                                      
78706,Cerdanyola Del Vallès,41.4925608,2.14752164,2                                                                                                   
78707,Montcada I Reixac-Santa María,41.4811409,2.16698683,2                                                                                           
78708,Montcada I Reixac-Manresa,41.4839402,2.18540420,2                                                                                               
78709,Sabadell Nord,41.5619773,2.09622844,2                                                                                                           
78710,Terrassa Est,41.5675296,2.03963639,2                                                                                                            
78800,Montcada-Bifurcació,41.4698402,2.18001578,2                                                                                                     
78801,Torre Del Baró-Vallbona,41.4609684,2.18102036,2                                                                                                 
78802,Fabra I Puig,41.4303481,2.18332907,2                                                                                                            
78804,Barcelona-Arc De Triomf,41.3919048,2.18063916,2                                                                                                 
78805,Barcelona-Plaça De Catalunya,41.3879231,2.16970383,1                                                                                            
78806,Barcelona-La Sagrera-Meridiana,41.4218480,2.18711031,2                                                                                          
79004,Barcelona-Sant Andreu,41.4361251,2.19319866,2                                                                                                   
79005,Montcada I Reixac,41.4842254,2.1880892,2                                                                                                        
79006,Mollet-Sant Fost,41.5335634,2.21766516,2                                                                                                        
79007,Montmeló,41.5496523,2.24544407,2                                                                                                                
79009,Barcelona-El Clot,41.4092979,2.18719759,2                                                                                                       
79011,La Llagosta,41.5104566,2.19973279,2                                                                                                             
79100,Granollers-Centre,41.5997447,2.29126962,1                                                                                                       
79101,Cardedeu,41.6367012,2.35626265,2                                                                                                                
79102,Llinars Del Vallès,41.6380367,2.40445769,2                                                                                                      
79103,Palautordera,41.6719522,2.45421488,2                                                                                                            
79104,Sant Celoni,41.6857928,2.49072799,2                                                                                                             
79105,Gualba,41.7181901,2.53878373,2                                                                                                                  
79106,Riells I Viabrea-Breda,41.7263582,2.56889584,2                                                                                                  
79107,Hostalric,41.7477880,2.63165011,2                                                                                                               
79109,Les Franqueses-Granollers Nord,41.6172549,2.29443180,2                                                                                          
79200,Maçanet-Massanes,41.7724212,2.67385865,2                                                                                                        
79202,Sils,41.8075996,2.74500729,2                                                                                                                    
79203,Caldes De Malavella,41.8411100,2.80076692,2                                                                                                     
79204,Riudellots,41.8962970,2.81157037,2                                                                                                              
79205,Fornells De La Selva,41.9350430,2.80978324,2                                                                                                    
79300,Girona,41.9793629,2.81693689,1                                                                                                                  
79301,Celrà,42.0271984,2.87490587,2                                                                                                                   
79302,Bordils-Juià,42.0370568,2.91529561,2                                                                                                            
79303,Flaçà,42.0474770,2.95740315,1                                                                                                                   
79304,Sant Jordi Desvalls,42.0683023,2.96447664,2                                                                                                     
79305,Camallera,42.1223297,2.96536522,2                                                                                                               
79306,Sant Miquel De Fluvià,42.1721019,2.98959828,2                                                                                                   
79308,Vilamalla,42.2163620,2.97776423,2                                                                                                               
79309,Figueres,42.2651134,2.96880074,1                                                                                                                
79311,Vilajuïga,42.3256691,3.08754626,2                                                                                                               
79312,Llançà,42.3666194,3.14897460,2                                                                                                                  
79314,Colera,42.4068837,3.15434316,2                                                                                                                  
79315,Portbou,42.4245908,3.15801841,1                                                                                                                 
79316,Cerbère,42.4416640,3.16314935,2                                                                                                                 
79400,Barcelona Estació De França,41.3844866,2.18534785,1                                                                                             
79403,Sant Adrià De Besòs,41.4244316,2.23048178,1                                                                                                     
79404,Badalona,41.4458838,2.24892096,1                                                                                                                
79405,Montgat,41.4630211,2.27215510,2                                                                                                                 
79406,Montgat-Nord,41.4687860,2.28669661,2                                                                                                            
79407,El Masnou,41.4770363,2.31037720,2                                                                                                               
79408,Ocata,41.4790211,2.31953267,2                                                                                                                   
79409,Premià De Mar,41.4877522,2.35485608,2                                                                                                           
79410,Vilassar De Mar,41.5006285,2.38986104,2                                                                                                         
79412,Cabrera De Mar-Vilassar De Mar,41.5067718,2.40162431,1                                                                                          
79500,Mataró,41.5333852,2.44553025,1                                                                                                                  
79501,Sant Andreu De Llavaneres,41.5555467,2.49826463,2                                                                                               
79502,Caldes D'estrac,41.5686082,2.52598143,2                                                                                                         
79600,Arenys De Mar,41.5776990,2.54933744,2                                                                                                           
79601,Canet De Mar,41.5866691,2.58128887,2                                                                                                            
79602,Sant Pol De Mar,41.6017549,2.62459756,2                                                                                                         
79603,Calella,41.6146911,2.66599517,1                                                                                                                 
79604,Pineda De Mar,41.6224449,2.69355042,2                                                                                                           
79605,Malgrat De Mar,41.6416020,2.74127903,2                                                                                                          
79606,Blanes,41.6736157,2.76926970,2                                                                                                                  
79607,Tordera,41.7071687,2.71957063,2                                                                                                                 
79608,Santa Susana,41.6300971,2.71596980,2                                                                                                            
80003,Etxarri-Aranatz,42.9111380,-2.0712450,2                                                                                                         
80005,Uharte-Arakil,42.9206060,-1.9748140,2                                                                                                           
80100,Pamplona/Iruña,42.8248770,-1.6614190,1                                                                                                          
80108,Tafalla,42.5257560,-1.6714670,2                                                                                                                 
80109,Olite-Erriberri,42.4849890,-1.6499640,2                                                                                                         
80114,Marcilla De Navarra,42.3348510,-1.7174180,2                                                                                                     
80115,Villafranca De Navarra,42.2807340,-1.7457160,2                                                                                                  
81100,Logroño,42.4574590,-2.4421930,1                                                                                                                 
81102,Agoncillo,42.4435850,-2.2917010,2                                                                                                               
81105,Alcanadre,42.4074370,-2.1220940,2                                                                                                               
81106,Féculas-Navarra,42.4111480,-2.0981960,2                                                                                                         
81108,Calahorra,42.3104580,-1.9577550,2                                                                                                               
81109,Rincón De Soto,42.2300110,-1.8474730,2                                                                                                          
81110,Alfaro,42.1865250,-1.7479850,2                                                                                                                  
81200,Castejón De Ebro,42.1727190,-1.6921140,2                                                                                                        
81202,Tudela De Navarra,42.0594340,-1.5979310,1                                                                                                       
81203,Ribaforada,41.9970380,-1.5150970,2                                                                                                              
81205,Cortes De Navarra,41.9150760,-1.4204390,2                                                                                                       
81206,Gallur,41.8671640,-1.3213420,2                                                                                                                  
81207,Luceni,41.8261160,-1.2435360,2                                                                                                                  
81208,Pedrola,41.8051980,-1.2016730,2                                                                                                                 
81209,Cabañas De Ebro,41.7880650,-1.1675330,2                                                                                                         
81210,Alagón,41.7714220,-1.1127710,2                                                                                                                  
97100,Pitis,40.4954173,-3.7261603,2                                                                                                                   
97200,Mirasierra-Paco De Lucía,40.4997590,-3.7092505,2                                                                                                
97201,Madrid-Ramón Y Cajal,40.4881473,-3.6948037,2                                                                                                    
98003,Fuente De La Mora,40.4847200,-3.6630608,2                                                                                                       
98304,Valdebebas,40.4821016,-3.6162874,2                                                                                                              
98305,Madrid-Aeropuerto T4,40.4924023,-3.5932297,2                                                                                                    
